{
  "activities_response": {
    "activities": [
      {
        "address": "Marienplatz, 80331 München, Germany",
        "category": "Cultural",
        "city": "Munich",
        "description": "Central square of Munich, known for the Glockenspiel show and historical buildings.",
        "distance": 5340,
        "images": [],
        "latitude": 48.1374,
        "longitude": 11.5755,
        "name": "Marienplatz",
        "opening_hours": "Always open",
        "price_range": "Free",
        "rating": 4.5,
        "tags": [
          "Historical Landmark",
          "City Center",
          "Shopping"
        ],
        "website": "https://www.muenchen.de/sehenswuerdigkeiten/marienplatz.html"
      },
      {
        "address": "Hofgartenstraße 1, 80538 München, Germany",
        "category": "Outdoor Activity",
        "city": "Munich",
        "description": "A beautiful garden near the Residenz, perfect for a relaxing stroll.",
        "distance": 5400,
        "images": [],
        "latitude": 48.1431,
        "longitude": 11.5784,
        "name": "Hofgarten",
        "opening_hours": "Always open",
        "price_range": "Free",
        "rating": 4.6,
        "tags": [
          "Park",
          "Garden",
          "Relaxation"
        ],
        "website": "https://www.schloesser.bayern.de/englisch/garden/objects/hofgarte.htm"
      },
      {
        "address": "Museumsinsel 1, 80538 München, Germany",
        "category": "Museum",
        "city": "Munich",
        "description": "One of the world's largest science and technology museums.",
        "distance": 5900,
        "images": [],
        "latitude": 48.1303,
        "longitude": 11.5842,
        "name": "Deutsches Museum",
        "opening_hours": "Daily 9:00-17:00",
        "price_range": "$$",
        "rating": 4.7,
        "tags": [
          "Science",
          "Technology",
          "History"
        ],
        "website": "https://www.deutsches-museum.de/en/"
      },
      {
        "address": "Viktualienmarkt 3, 80331 München, Germany",
        "category": "Cultural",
        "city": "Munich",
        "description": "A daily food market in the center of Munich. Great for trying local food and drinks.",
        "distance": 5500,
        "images": [],
        "latitude": 48.1347,
        "longitude": 11.5777,
        "name": "Viktualienmarkt",
        "opening_hours": "Mon-Sat 06:00-20:00 (varies by vendor)",
        "price_range": "$",
        "rating": 4.5,
        "tags": [
          "Food Market",
          "Local Cuisine",
          "Shopping"
        ],
        "website": "https://www.muenchen.de/viktualienmarkt"
      }
    ]
  },
  "session_id": "e265973d-a542-430e-b51a-e3dbf1a4ce02"
}